City_ID,City,Lat,Lng,Max Temp,Humidity,Cloudiness,Wind Speed,Country,Date
0,blackmans bay,-43.0167,147.3167,53.73,72,97,6.31,AU,1703958313
1,peruibe,-24.32,-46.9983,74.88,84,100,4.29,BR,1703958313
2,hendersonville,36.3048,-86.62,39.81,85,100,4.0,US,1703958040
3,kerikeri,-35.2268,173.9474,71.91,92,81,7.61,NZ,1703958315
4,businga,3.3333,20.8833,77.79,47,61,1.79,CD,1703958316
5,ribeira grande,38.5167,-28.7,63.77,59,40,5.01,PT,1703958316
6,cox's bazar,21.4532,91.9798,64.38,83,0,5.73,BD,1703958317
7,kargasok,59.0556,80.8572,14.97,91,100,17.0,RU,1703958318
8,grytviken,-54.2811,-36.5092,32.4,72,99,2.15,GS,1703958319
9,neiafu,-18.65,-173.9833,77.68,88,75,6.91,TO,1703958320
10,voi,-3.3945,38.563,75.34,87,92,7.9,KE,1703958320
11,burela de cabo,43.65,-7.4,56.17,70,84,18.86,ES,1703958321
12,chonchi,-42.6128,-73.8092,74.41,38,98,3.4,CL,1703958322
13,kachug,53.9606,105.8817,14.05,97,100,1.01,RU,1703958322
14,federal,-30.9547,-58.7833,75.69,46,7,9.17,AR,1703958323
15,albany,42.6001,-73.9662,41.65,78,95,4.0,US,1703957797
16,pacasmayo,-7.4006,-79.5714,76.24,71,100,12.57,PE,1703958324
17,adamstown,-25.066,-130.1015,72.1,76,96,15.23,PN,1703958325
18,igarka,67.4667,86.5833,14.92,93,100,15.77,RU,1703958325
19,naracoorte,-36.9579,140.7383,48.63,87,0,6.38,AU,1703958326
20,constantia,44.1833,28.65,39.88,80,76,8.81,RO,1703958245
21,beitbridge,-22.2167,30.0,77.58,56,35,10.18,ZW,1703958327
22,hawaiian paradise park,19.5933,-154.9731,71.04,97,100,4.61,US,1703958327
23,rio grande,-32.035,-52.0986,73.51,45,0,11.32,BR,1703958328
24,trujillo,-8.116,-79.03,73.36,83,20,10.36,PE,1703958272
25,san julian,21.0167,-102.1667,57.18,43,0,4.43,MX,1703958329
26,talnakh,69.4865,88.3972,1.58,99,100,1.57,RU,1703958329
27,los osos,35.3111,-120.8324,57.11,97,78,3.0,US,1703958330
28,atafu village,-8.5421,-172.5159,83.84,68,56,11.25,TK,1703958330
29,bria,6.5423,21.9863,80.51,26,25,1.88,CF,1703958331
30,longyearbyen,78.2186,15.6401,31.84,69,75,11.5,SJ,1703958102
31,san luis de la loma,17.2706,-100.8939,82.11,54,0,6.33,MX,1703958332
32,yeraliyev,43.2,51.65,45.19,80,24,8.37,KZ,1703958332
33,ramanuj ganj,23.8,83.7,53.44,65,0,2.44,IN,1703958333
34,port-aux-francais,-49.35,70.2167,42.22,94,81,31.85,TF,1703958333
35,kolwezi,-10.7148,25.4667,62.96,98,74,5.5,CD,1703958334
36,waitangi,-43.9535,-176.5597,61.83,98,97,5.01,NZ,1703958334
37,trincomalee,8.5711,81.2335,79.11,83,27,13.42,LK,1703958335
38,zambezi,-13.5432,23.1047,71.56,78,34,3.15,ZM,1703958335
39,yelandur,12.0667,77.0333,66.92,86,87,3.69,IN,1703958336
40,nemuro,43.3236,145.575,26.42,79,100,8.34,JP,1703958336
41,weno,7.4515,151.8468,82.35,83,40,5.75,FM,1703958338
42,bredasdorp,-34.5322,20.0403,67.39,96,100,12.26,ZA,1703958339
43,mocimboa,-11.3167,40.35,82.06,81,76,8.81,MZ,1703958339
44,bethel,41.3712,-73.414,46.22,76,100,9.22,US,1703958340
45,port elizabeth,-33.918,25.5701,70.11,90,100,6.91,ZA,1703958340
46,avarua,-21.2078,-159.775,78.85,78,43,6.91,CK,1703958341
47,stanley,54.868,-1.6985,47.79,93,75,8.05,GB,1703958341
48,mu'minobod,38.1085,70.0285,38.03,66,52,4.63,TJ,1703958342
49,touros,-5.1989,-35.4608,84.99,65,30,13.15,BR,1703958343
50,happy valley-goose bay,53.3168,-60.3315,23.31,86,100,0.0,CA,1703958310
51,cockburn town,21.4612,-71.1419,76.48,82,100,14.27,TC,1703958296
52,chenzhou,25.8,113.0333,60.33,76,23,1.34,CN,1703958345
53,georgetown,5.4112,100.3354,79.95,97,20,2.3,MY,1703958204
54,remire-montjoly,4.9167,-52.2667,87.84,70,40,14.97,GF,1703958346
55,vilyuysk,63.7553,121.6247,-29.99,97,100,5.99,RU,1703958346
56,isla vista,34.4133,-119.861,58.01,85,75,0.0,US,1703958347
57,sinabang,2.4803,96.3801,78.6,88,100,6.04,ID,1703958347
58,callao,-12.0667,-77.15,77.29,69,75,11.5,PE,1703958348
59,nagqu,31.5,92.0,5.54,51,27,4.16,CN,1703958348
60,bel ombre,-4.6167,55.4167,80.44,94,20,3.44,SC,1703958349
61,kudahuvadhoo,2.6708,72.8944,80.87,81,85,10.13,MV,1703958350
62,invercargill,-46.4,168.35,53.02,92,95,11.99,NZ,1703958350
63,arawa,-6.2132,155.5367,77.88,93,100,0.4,PG,1703958350
64,valparaiso,-33.0393,-71.6273,70.03,71,75,10.36,CL,1703958351
65,wailua homesteads,22.0669,-159.378,65.19,82,20,9.22,US,1703958351
66,ilulissat,69.2167,-51.1,12.22,44,75,26.46,GL,1703958352
67,gadzhiyevo,69.2551,33.3362,14.14,98,99,3.8,RU,1703958352
68,puerto ayora,-0.7393,-90.3518,84.16,80,71,8.68,EC,1703958353
69,nappanee,41.4428,-86.0014,37.22,84,100,10.36,US,1703958154
70,lompoc,34.6391,-120.4579,56.52,72,100,5.01,US,1703958354
71,hilo,19.7297,-155.09,71.26,97,100,4.61,US,1703958342
72,bubaque,11.2833,-15.8333,79.68,73,3,14.67,GW,1703958355
73,tabou,4.423,-7.3528,82.8,77,12,9.8,CI,1703958355
74,el calafate,-50.3408,-72.2768,63.93,45,11,13.35,AR,1703958356
75,sandnessjoen,66.0217,12.6316,14.52,68,100,15.9,NO,1703958356
76,giado,31.9582,12.0203,53.92,47,58,2.33,LY,1703958357
77,sisimiut,66.9395,-53.6735,15.96,74,100,15.43,GL,1703958357
78,yellowknife,62.456,-114.3525,20.41,99,75,10.36,CA,1703958252
79,kailua-kona,19.6406,-155.9956,73.6,79,20,3.44,US,1703958358
80,kourou,5.1552,-52.6478,87.85,74,69,9.22,GF,1703958359
81,isafjordur,66.0755,-23.124,23.16,91,100,11.07,IS,1703958360
82,khorixas,-20.3667,14.9667,75.58,25,3,18.72,NA,1703958360
83,preobrazheniye,42.9019,133.9064,26.73,90,100,10.94,RU,1703958361
84,kayangel,8.0823,134.7173,82.15,83,77,15.03,PW,1703958361
85,howrah,22.5892,88.3103,66.2,77,20,5.75,IN,1703958362
86,uturoa,-16.7333,-151.4333,82.09,80,74,12.3,PF,1703958362
87,broome,42.2506,-75.833,39.61,93,100,11.5,US,1703958363
88,segou,13.4317,-6.2157,83.35,9,12,7.52,ML,1703958363
89,shihezi,44.3,86.0333,20.66,91,52,3.91,CN,1703958364
90,bereznik,62.8551,42.7072,-20.27,100,49,1.01,RU,1703958364
91,taoudenni,22.6783,-3.9836,71.35,18,9,9.1,ML,1703958365
92,ancud,-41.8697,-73.8203,63.57,62,67,6.62,CL,1703958366
93,huilong,31.8111,121.655,46.56,82,2,13.87,CN,1703958366
94,isla mujeres,21.2311,-86.731,69.85,60,88,13.35,MX,1703958367
95,dubovskoye,47.4092,42.7575,42.35,92,95,7.23,RU,1703958367
96,whitehorse,60.7161,-135.0538,14.77,85,75,3.44,CA,1703958368
97,badger,64.8,-147.5333,7.12,74,75,0.0,US,1703958369
98,malvan,16.0667,73.4667,76.06,68,9,7.63,IN,1703958369
99,kovdor,67.5662,30.4758,-9.76,100,100,2.17,RU,1703958370
100,vikhorevka,56.1201,101.1636,24.39,98,100,4.05,RU,1703958370
101,kyshtovka,56.555,76.6271,15.35,87,100,20.0,RU,1703958371
102,hermanus,-34.4187,19.2345,67.8,91,97,13.27,ZA,1703958371
103,olonkinbyen,70.9221,-8.7187,17.71,74,100,21.43,SJ,1703958372
104,hithadhoo,-0.6,73.0833,81.16,78,94,5.12,MV,1703958245
105,keflavik,64.0049,-22.5624,34.23,93,75,14.97,IS,1703958373
106,kupang,-10.1667,123.5833,81.18,100,88,4.61,ID,1703958373
107,ganshui,28.7422,106.7111,50.97,86,0,0.47,CN,1703958374
108,vilyuchinsk,52.9306,158.4028,10.67,77,100,9.98,RU,1703958374
109,ciudad acuna,29.3232,-100.9522,63.41,40,0,3.44,MX,1703958375
110,waingapu,-9.6567,120.2641,81.39,79,40,3.24,ID,1703958376
111,olinda,-8.0089,-34.8553,85.73,66,40,10.36,BR,1703958316
112,revda,56.801,59.9303,4.33,90,100,13.2,RU,1703958377
113,itamaraca,-7.7478,-34.8256,86.05,64,3,9.26,BR,1703958377
114,jackson,42.4165,-122.8345,49.86,92,40,3.0,US,1703958026
115,okha,53.5739,142.9478,-14.4,96,75,14.03,RU,1703958378
116,edinburgh of the seven seas,-37.0676,-12.3116,64.89,95,37,16.93,SH,1703958379
117,udachny,66.4167,112.4,-11.56,83,100,11.61,RU,1703958379
118,rio preto da eva,-2.6994,-59.6997,76.37,97,100,2.98,BR,1703958380
119,vorgashor,67.5833,63.95,-17.37,92,15,21.27,RU,1703958380
120,port alfred,-33.5906,26.891,71.85,89,100,18.25,ZA,1703958381
121,shimokizukuri,40.8061,140.3861,40.51,83,100,2.98,JP,1703958381
122,ushuaia,-54.8,-68.3,56.82,54,0,24.16,AR,1703958382
123,iskateley,67.6803,53.1512,-2.97,91,75,14.0,RU,1703958382
124,cambria,35.5641,-121.0808,56.75,100,65,1.01,US,1703958383
125,saipan,15.1355,145.701,79.5,94,75,19.57,MP,1703958384
126,iskushuban,10.2837,50.23,70.72,79,97,13.2,SO,1703958384
127,fort mcmurray,56.7268,-111.381,18.99,86,0,5.75,CA,1703958385
128,west island,-12.1568,96.8225,80.58,83,97,11.5,CC,1703958386
129,villa regina,-39.1,-67.0667,95.99,15,7,5.99,AR,1703958386
130,neon karlovasion,37.7903,26.7044,63.91,77,100,7.83,GR,1703958387
131,tromso,69.6496,18.957,21.22,53,0,13.8,NO,1703958387
132,punta arenas,-53.15,-70.9167,60.91,33,0,25.32,CL,1703958385
133,oruro,-17.9833,-67.15,51.46,64,100,5.5,BO,1703958388
134,glace bay,46.1969,-59.957,35.78,92,100,3.44,CA,1703958389
135,iqaluit,63.7506,-68.5145,22.73,85,75,11.5,CA,1703958390
136,papatowai,-46.5619,169.4708,51.94,93,100,5.7,NZ,1703958390
137,utrik,11.2278,169.8474,80.91,80,93,17.58,MH,1703958391
138,quellon,-43.1167,-73.6167,63.91,59,100,10.56,CL,1703958392
139,mejit,10.2753,170.8646,80.74,83,100,17.02,MH,1703958392
140,horta,38.5333,-28.6333,63.01,64,40,5.01,PT,1703958393
141,lihue,21.9789,-159.3672,65.79,82,20,9.22,US,1703958393
142,ust-nera,64.5667,143.2,-50.78,99,73,3.2,RU,1703958394
143,sovetskiy,61.3614,63.5842,1.89,91,100,8.99,RU,1703958394
144,illizi,26.4833,8.4667,67.8,22,4,7.85,DZ,1703958395
145,sitka,57.0531,-135.33,42.69,81,100,19.57,US,1703958396
146,talcahuano,-36.7167,-73.1167,67.68,60,40,13.8,CL,1703958396
147,la ronge,55.1001,-105.2842,14.25,85,75,3.44,CA,1703958397
148,jamestown,42.097,-79.2353,33.53,91,100,10.36,US,1703958398
149,teknaf,20.8624,92.3058,66.4,85,3,5.66,BD,1703958398
150,bathsheba,13.2167,-59.5167,84.81,70,40,13.8,BB,1703958399
151,kawambwa,-9.7915,29.0791,65.03,95,98,3.27,ZM,1703958399
152,nakhon thai,17.1006,100.8374,69.91,67,83,2.86,TH,1703958400
153,polyarnyy,69.1989,33.4478,13.3,97,100,3.78,RU,1703958400
154,nar'yan-mar,67.6713,53.087,-2.88,91,77,14.0,RU,1703958401
155,boguchany,58.3814,97.4531,21.56,86,99,9.06,RU,1703958401
156,dudinka,69.4058,86.1778,-14.33,96,100,14.0,RU,1703958402
157,kangding,30.0513,101.9603,36.46,27,0,4.38,CN,1703958402
158,bengkulu,-3.8004,102.2655,77.07,92,100,5.06,ID,1703958403
159,crucecita,-28.95,-58.9833,80.85,58,75,8.93,AR,1703958404
160,fort bragg,35.139,-79.006,51.21,67,100,9.22,US,1703958173
161,sao francisco,-15.9486,-44.8644,92.43,45,100,1.48,BR,1703958399
162,kodiak,57.79,-152.4072,15.31,86,100,5.75,US,1703958250
163,embarcacion,-23.209,-64.096,70.41,91,100,3.62,AR,1703958406
164,hohhot,40.8106,111.6522,7.09,78,20,11.18,CN,1703958406
165,mil'kovo,55.6078,37.7956,36.43,99,100,9.42,RU,1703958407
166,mucumpiz,8.4167,-71.1333,65.73,76,91,2.98,VE,1703958408
167,katsuura,35.1333,140.3,61.05,73,100,20.29,JP,1703958408
168,pimentel,-6.8367,-79.9342,80.89,65,0,12.66,PE,1703958409
169,patur,20.45,76.9333,70.86,46,3,5.7,IN,1703958409
170,puerto natales,-51.7236,-72.4875,64.85,42,20,19.57,CL,1703958410
171,fortuna,40.5982,-124.1573,53.92,98,100,0.0,US,1703958410
172,east london,-33.0153,27.9116,70.74,94,40,11.5,ZA,1703958411
173,kudymkar,59.0173,54.656,-4.02,97,100,5.41,RU,1703958412
174,anloga,5.7947,0.8973,82.92,75,29,13.13,GH,1703958412
175,st. john's,47.5649,-52.7093,34.97,97,100,20.71,CA,1703958369
176,volda,62.1476,6.0741,36.09,94,92,3.42,NO,1703958414
177,carnarvon,-24.8667,113.6333,72.77,81,23,17.31,AU,1703958414
178,bandarbeyla,9.4942,50.8122,77.16,71,83,18.5,SO,1703958415
179,san antonio de pale,-1.4014,5.6325,81.46,80,17,10.54,GQ,1703958415
180,arteche,12.2645,125.4048,77.9,91,55,4.63,PH,1703958416
181,smithers,54.7804,-127.1743,30.52,100,75,2.3,CA,1703958417
182,cannonvale,-20.2833,148.7,79.99,84,28,12.26,AU,1703958417
183,el alto,-4.2714,-81.2147,80.26,71,71,7.27,PE,1703958418
184,bilibino,68.0546,166.4372,-35.68,96,41,2.26,RU,1703958418
185,ambilobe,-13.2,49.05,78.12,89,93,0.34,MG,1703958419
186,nueva gerona,21.8833,-82.8,68.81,79,99,8.93,CU,1703958420
187,puerto armuelles,8.2833,-82.8667,85.98,62,86,1.01,PA,1703958420
188,velyka lepetykha,47.1757,33.9436,41.27,83,95,8.3,UA,1703958421
189,margaret river,-33.95,115.0667,61.34,80,0,11.21,AU,1703958422
190,westport,41.1415,-73.3579,46.89,69,100,10.36,US,1703958422
191,tura,25.5198,90.2201,60.64,75,0,3.42,IN,1703958423
192,milas,37.3164,27.7839,61.48,88,75,3.44,TR,1703958424
193,karratha,-20.7377,116.8463,91.4,29,4,15.46,AU,1703958424
194,kirawsk,53.2686,29.4736,38.95,92,100,15.64,BY,1703958425
195,anadyr,64.75,177.4833,5.5,77,0,6.71,RU,1703958398
196,tiksi,71.6872,128.8694,-32.73,97,100,10.13,RU,1703958426
197,hede,33.7681,120.2517,38.91,86,5,10.54,CN,1703958427
198,undurkhaan,47.3194,110.6556,-3.08,98,20,3.74,MN,1703958428
199,plastun,44.7561,136.2939,20.19,74,100,4.52,RU,1703958428
200,portland,45.5234,-122.6762,51.8,92,100,12.66,US,1703957792
201,masvingo,-20.0637,30.8277,63.18,97,100,2.13,ZW,1703958430
202,poronaysk,49.2167,143.1167,-10.77,91,3,3.91,RU,1703958431
203,lebu,-37.6167,-73.65,64.38,67,16,17.29,CL,1703958396
204,cateel,7.7914,126.4533,76.46,85,96,3.6,PH,1703958432
205,palikir - national government center,6.9248,158.1611,79.54,94,100,3.44,FM,1703958432
206,garoowe,8.4054,48.4845,75.22,53,77,15.55,SO,1703958433
207,north elba,44.2434,-73.9543,30.99,94,100,5.01,US,1703958433
208,saskatoon,52.1168,-106.6345,29.16,85,20,4.61,CA,1703958229
209,santa rosa de calamuchita,-32.0691,-64.5363,79.9,37,24,14.94,AR,1703958434
210,pechora,65.1472,57.2244,-7.11,91,47,11.48,RU,1703958435
211,sao geraldo do araguaia,-6.4006,-48.555,92.01,46,94,6.73,BR,1703958355
212,santana,-0.0583,-51.1817,80.78,89,20,6.91,BR,1703958374
213,lata,40.1629,-8.3327,55.81,75,93,4.38,PT,1703958437
214,pudozh,61.8099,36.5345,4.95,94,95,5.01,RU,1703958437
215,la'ie,21.6477,-157.9253,73.62,71,41,4.0,US,1703958438
216,shanwei,22.782,115.3475,67.1,77,2,2.75,CN,1703958438
217,geraldton,-28.7667,114.6,70.21,83,40,5.75,AU,1703958439
218,kavieng,-2.5744,150.7967,82.27,79,90,7.09,PG,1703958439
219,lazaro cardenas,17.9583,-102.2,81.63,55,0,3.47,MX,1703958440
220,kuhmo,64.1333,29.5167,-1.8,100,96,4.61,FI,1703958440
221,monze,-16.2833,27.4833,67.91,88,56,6.2,ZM,1703958441
222,bir el ater,34.7449,8.0602,49.89,52,99,4.63,DZ,1703958441
223,namie,37.4833,141.0,45.72,86,99,4.74,JP,1703958442
224,cabedelo,-6.9811,-34.8339,88.47,68,16,10.29,BR,1703958328
225,colonia,50.9333,6.95,49.87,77,92,1.01,DE,1703958309
226,charlottetown,46.2352,-63.1267,35.89,99,100,6.91,CA,1703958444
227,petropavlovsk-kamchatsky,53.0452,158.6483,9.19,85,75,15.01,RU,1703958445
228,kapa'a,22.0752,-159.319,66.52,82,20,9.22,US,1703958317
229,parang,7.3704,124.2697,75.15,94,82,2.84,PH,1703958446
230,yamba,-5.9,22.3,71.38,97,97,2.51,CD,1703958447
231,guisborough,54.5348,-1.0561,49.32,88,100,8.01,GB,1703958448
232,magaria,12.9983,8.9099,73.85,19,0,6.98,NE,1703958448
233,amboasary,-25.0333,46.3833,76.35,85,86,10.92,MG,1703958449
234,richards bay,-28.783,32.0377,74.23,84,2,12.88,ZA,1703958214
235,nova sintra,14.8667,-24.7167,72.55,70,58,13.04,CV,1703958450
236,namtsy,62.7161,129.6658,-56.04,100,100,1.99,RU,1703958451
237,luderitz,-26.6481,15.1594,64.87,87,7,3.29,NA,1703958451
238,eastham,41.8301,-69.9739,45.99,82,100,6.91,US,1703958452
239,bodden town,19.2833,-81.25,71.6,96,100,13.8,KY,1703958452
240,hasaki,35.7333,140.8333,43.2,70,100,15.3,JP,1703958453
241,lusambo,-4.9667,23.45,69.55,99,99,0.92,CD,1703958454
242,darwin,-12.4611,130.8418,85.98,81,94,5.75,AU,1703958446
243,larkird,35.4894,66.6641,40.98,48,0,5.53,AF,1703958454
244,ulladulla,-35.35,150.4667,60.6,79,100,10.42,AU,1703958455
245,mtsensk,53.2766,36.5733,34.77,100,100,16.96,RU,1703958456
246,cananeia,-25.0147,-47.9267,75.96,75,100,5.26,BR,1703958456
247,minot air force base,48.4209,-101.3391,23.09,68,0,16.11,US,1703958457
248,nadi,-17.8,177.4167,75.2,83,40,2.3,FJ,1703958457
249,toba,34.4833,136.85,46.09,92,100,3.0,JP,1703958458
250,usogorsk,63.4106,48.6872,-3.6,100,100,3.18,RU,1703958458
251,arkhangel'sk,64.5401,40.5433,5.13,92,75,0.0,RU,1703958459
252,kotputli,27.7167,76.2,51.58,64,95,1.5,IN,1703958459
253,port-vila,-17.7338,168.3219,78.53,88,15,8.52,VU,1703958460
254,hovd,48.0056,91.6419,11.28,66,50,7.81,MN,1703958460
255,saldanha,-33.0117,17.9442,73.45,92,37,5.7,ZA,1703958461
256,chita,52.0333,113.55,-9.04,76,32,0.0,RU,1703958461
257,nuuk,64.1835,-51.7216,18.21,41,20,2.3,GL,1703958323
258,qaqortoq,60.7167,-46.0333,10.72,64,31,9.78,GL,1703958463
259,upington,-28.4478,21.2561,82.78,32,20,11.5,ZA,1703958464
260,fale old settlement,-9.3852,-171.2468,83.61,69,64,7.07,TK,1703958464
261,dekina,7.6948,7.0222,84.22,21,58,2.82,NG,1703958465
262,nasir,15.5894,32.5634,73.85,18,0,10.16,SD,1703958465
263,hadibu,12.65,54.0333,76.21,72,39,9.82,YE,1703958466
264,belmonte,-15.8631,-38.8828,84.78,65,39,13.04,BR,1703958466
265,arraial do cabo,-22.9661,-42.0278,82.36,78,75,14.97,BR,1703958467
266,tha kham,9.1107,99.2321,81.19,100,20,3.44,TH,1703958467
267,prince rupert,54.3161,-130.3201,51.49,85,100,25.32,CA,1703958468
268,karasuk,53.7377,78.0403,26.64,93,100,21.47,RU,1703958469
269,mantua,45.1667,10.7833,47.08,90,98,4.32,IT,1703958469
270,enewetak,11.3474,162.3373,81.16,80,72,16.02,MH,1703958470
271,newman,37.3138,-121.0208,54.01,80,98,2.62,US,1703958470
272,naivasha,-0.7167,36.4359,62.13,90,100,2.01,KE,1703958471
273,kochubey,44.3861,46.5825,43.65,41,68,4.0,RU,1703958472
274,mata-utu,-13.2816,-176.1745,82.71,76,100,7.49,WF,1703958472
275,mount pearl,47.5166,-52.7813,34.14,97,100,20.71,CA,1703958473
276,filadelfia,39.9523,-75.1638,46.06,69,100,18.41,US,1703958374
277,bechar,31.6167,-2.2167,64.72,17,0,4.61,DZ,1703958474
278,alice springs,-23.7,133.8833,71.15,30,61,0.0,AU,1703958475
279,montevideo,-34.8335,-56.1674,68.02,45,0,12.66,UY,1703958475
280,palmer,42.1584,-72.3287,43.07,78,100,8.05,US,1703958303
281,ketchikan,55.3422,-131.6461,51.78,87,100,12.66,US,1703958477
282,n'zeto,-7.2312,12.8666,80.35,82,48,9.53,AO,1703958477
283,aasiaat,68.7098,-52.8699,7.88,77,100,12.82,GL,1703958478
284,riberalta,-10.9833,-66.1,93.4,59,75,0.0,BO,1703958478
285,el porvenir,13.7617,-87.3458,81.73,41,47,4.12,HN,1703958479
286,nema,57.5067,50.5011,-9.31,100,76,2.8,RU,1703958479
287,tibiri,13.5627,7.0485,86.34,17,0,4.61,NE,1703958480
288,kabalo,-6.05,26.9167,71.04,92,100,2.44,CD,1703958481
289,new norfolk,-42.7826,147.0587,54.91,90,99,3.33,AU,1703958482
290,laguna,38.421,-121.4238,55.49,94,40,8.05,US,1703958482
291,val-d'or,48.1002,-77.7828,17.69,86,75,6.91,CA,1703958206
292,nsanje,-16.92,35.262,74.77,92,100,2.55,MW,1703958484
293,sirsi,14.6167,74.85,68.59,49,14,5.84,IN,1703958484
294,klaksvik,62.2266,-6.589,36.52,87,100,34.02,FO,1703958485
295,callaway,30.153,-85.5699,57.9,52,0,18.41,US,1703958486
296,kingston,17.997,-76.7936,86.23,74,20,5.75,JM,1703958358
297,cuito,-12.3833,16.9333,63.41,86,98,1.63,AO,1703958487
298,tsiombe,-25.3,45.4833,75.25,87,94,15.39,MG,1703958487
299,winnemucca,40.973,-117.7357,35.65,69,0,0.0,US,1703958488
300,farasan,16.7022,42.1183,79.63,74,12,2.17,SA,1703958489
301,rongelap,11.1635,166.8941,80.91,82,97,17.45,MH,1703958489
302,tralee,52.2704,-9.7026,46.65,81,100,21.85,IE,1703958490
303,shevchenko,48.5,35.0,41.79,78,99,8.55,UA,1703958491
304,malax,62.9423,21.5731,10.35,85,100,9.22,FI,1703958491
305,shingu,33.7333,135.9833,54.79,96,100,4.68,JP,1703958492
306,eagle point,42.4726,-122.8028,51.19,91,40,0.0,US,1703958493
307,pachelma,53.2443,43.3521,33.82,96,100,9.71,RU,1703958493
308,chicoana,-25.1009,-65.5331,77.05,67,100,3.56,AR,1703958494
309,klyuchi,52.2667,79.1667,27.21,92,100,24.27,RU,1703958494
310,charters towers,-20.1,146.2667,78.4,84,31,8.05,AU,1703958495
311,bikenibeu village,1.3673,173.1241,82.36,89,40,8.05,KI,1703958495
312,afaahiti,-17.75,-149.2833,82.27,85,95,12.12,PF,1703958496
313,fauske,67.2588,15.3918,21.24,84,9,10.54,NO,1703958497
314,fort st. john,56.2499,-120.8529,19.29,93,75,6.91,CA,1703958497
315,machecoul,46.9936,-1.8235,55.38,83,87,20.92,FR,1703958498
316,taroudant,30.4703,-8.877,62.49,22,37,7.87,MA,1703958498
317,adrar,20.5022,-10.0711,68.95,10,6,8.3,MR,1703958499
318,ambalangoda,6.2355,80.0538,77.05,91,84,3.22,LK,1703958499
319,richmond,37.5538,-77.4603,50.41,58,20,13.8,US,1703958386
320,tianchang,37.9981,114.0156,26.47,73,0,7.67,CN,1703958500
321,markala,13.7021,-6.0659,82.63,10,11,6.46,ML,1703958501
322,willmar,45.1219,-95.0433,26.62,100,100,17.27,US,1703958299
323,ola,59.5833,151.2833,-18.22,86,56,9.01,RU,1703958502
324,weisswasser,51.5167,14.6333,45.16,85,98,7.0,DE,1703958503
325,coquimbo,-29.9533,-71.3436,69.53,68,40,13.8,CL,1703958503
326,mumford,5.2618,-0.759,82.0,81,52,12.64,GH,1703958504
327,margate,51.3813,1.3862,52.9,84,100,15.99,GB,1703958201
328,galesong,-5.3166,119.3661,77.02,84,94,5.5,ID,1703958504
329,hausach,48.2833,8.1667,49.89,86,87,4.21,DE,1703958505
330,anantapur,14.6833,77.6,70.11,68,74,7.23,IN,1703958506
331,east ballina,-28.8667,153.5833,66.79,82,48,7.43,AU,1703958506
332,miyaly,48.8844,53.7836,34.68,96,84,11.83,KZ,1703958507
333,bani walid,31.7566,13.9942,57.88,47,29,7.25,LY,1703958507
334,pailitas,8.9565,-73.6255,89.62,61,94,1.41,CO,1703958508
335,aykhal,66.0,111.5,-11.33,99,100,9.48,RU,1703958355
336,kuytun,54.3419,101.5036,21.33,97,100,2.89,RU,1703958509
337,mana,5.6592,-53.7767,84.47,68,53,9.22,GF,1703958509
338,wotho,10.1657,166.0102,80.96,85,93,17.65,MH,1703958510
339,xining,36.6167,101.7667,28.33,26,0,1.81,CN,1703958510
340,bantay,17.5847,120.3892,75.79,86,43,3.53,PH,1703958511
341,haiku-pauwela,20.9219,-156.3051,73.04,77,20,8.99,US,1703958512
342,rincon,32.296,-81.2354,55.36,49,20,18.41,US,1703958512
343,qarauyl,48.9451,79.255,22.26,71,100,30.6,KZ,1703958513
344,hamilton,39.1834,-84.5333,41.74,87,100,13.8,US,1703957964
345,san patricio,28.017,-97.5169,67.91,27,0,6.13,US,1703958514
346,chui,-33.6971,-53.4616,71.71,45,15,13.94,UY,1703958514
347,kapuskasing,49.4169,-82.4331,19.49,86,75,5.75,CA,1703958482
348,lorengau,-2.0226,147.2712,80.42,83,98,3.6,PG,1703958515
349,monte alegre,-2.0078,-54.0692,89.56,51,100,5.14,BR,1703958516
350,rosetta,31.4044,30.4164,63.63,77,100,10.29,EG,1703958516
351,jayapura,-2.5333,140.7,74.59,89,18,3.29,ID,1703958517
352,port mathurin,-19.6833,63.4167,81.93,75,48,3.33,MU,1703958517
353,kenai,60.5544,-151.2583,3.15,85,100,4.61,US,1703958518
354,auki,-8.7676,160.7034,77.79,88,65,4.29,SB,1703958519
355,lerwick,60.1545,-1.1494,42.8,66,97,30.74,GB,1703958519
356,yarmouth,41.7057,-70.2286,47.01,89,100,14.0,US,1703958264
357,shimoda,34.6667,138.95,53.1,84,100,11.32,JP,1703958520
358,vanimo,-2.6741,141.3028,77.41,87,27,2.48,PG,1703958521
359,itoman,26.1247,127.6694,71.62,88,75,3.44,JP,1703958522
360,ashchysay,43.5542,68.8889,21.29,58,74,6.6,KZ,1703958523
361,walvis bay,-22.9575,14.5053,70.75,68,3,9.22,NA,1703958523
362,jatiroto,-7.8833,111.1167,75.94,93,99,3.27,ID,1703958524
363,luba,3.4568,8.5547,84.09,79,69,7.72,GQ,1703958524
364,zhanibek,49.4167,46.85,35.87,94,80,8.9,KZ,1703958525
365,vodice,43.7608,15.7828,54.7,88,79,2.42,HR,1703958525
366,trutnov,50.561,15.9127,43.48,90,97,4.81,CZ,1703958526
367,vernon,50.2581,-119.2691,37.29,100,96,1.14,CA,1703958527
368,puerto baquerizo moreno,-0.9,-89.6,83.39,79,40,14.97,EC,1703958527
369,vorkuta,67.5,64.0,-17.19,91,13,20.85,RU,1703958528
370,juan griego,11.0817,-63.9655,83.55,69,91,12.44,VE,1703958528
371,mont-dore,-22.2833,166.5833,76.98,82,4,5.14,NC,1703958529
372,chardara,41.2547,67.9692,38.62,57,3,6.02,KZ,1703958530
373,flying fish cove,-10.4217,105.6791,80.28,89,75,11.5,CX,1703958530
374,praia,14.9215,-23.5087,86.54,35,0,16.11,CV,1703958346
375,kedrovyy,56.1667,91.8167,25.21,75,100,13.67,RU,1703958531
376,haapavesi,64.1333,25.3667,3.52,97,71,5.35,FI,1703958532
377,kuju,23.7167,85.5,59.74,49,0,2.59,IN,1703958533
378,posse,-14.0931,-46.3694,85.39,50,96,5.28,BR,1703958515
379,praia da vitoria,38.7333,-27.0667,64.65,63,20,2.84,PT,1703958534
380,siwa oasis,29.2041,25.5195,61.34,55,3,3.0,EG,1703958534
381,queenstown,-31.8976,26.8753,70.75,54,92,4.41,ZA,1703958535
382,dwarka,22.2394,68.9678,74.07,52,0,8.72,IN,1703958536
383,tolanaro,-25.0319,46.9987,75.27,94,75,18.41,MG,1703958537
384,qacha's nek,-30.1154,28.6894,59.81,76,72,1.41,LS,1703958537
385,yemva,62.59,50.8594,4.28,97,100,3.89,RU,1703958538
386,shagonar,51.5333,92.8,3.87,97,99,1.36,RU,1703958538
387,chibougamau,49.9168,-74.3659,13.62,79,100,6.91,CA,1703958539
388,monroeville,40.4212,-79.7881,38.14,80,100,12.66,US,1703957802
389,cabo san lucas,22.8909,-109.9124,76.6,50,1,3.78,MX,1703958541
390,kapshagay,43.8833,77.0833,31.21,68,100,3.67,KZ,1703958541
391,bouafle,6.9904,-5.7442,93.22,29,0,4.41,CI,1703958542
392,puerto barrios,15.7167,-88.6,69.94,100,75,0.0,GT,1703958268
393,ifon,6.9241,5.776,83.48,32,94,1.41,NG,1703958545
394,moree,-29.4667,149.85,75.27,58,21,10.07,AU,1703958546
395,nikolayevsk-on-amure,53.1406,140.73,-20.63,95,9,3.58,RU,1703958546
396,maintirano,-18.0667,44.0167,83.88,73,100,2.82,MG,1703958547
397,dalaman,36.7659,28.8028,53.46,94,75,4.61,TR,1703958548
398,rundu,-17.9333,19.7667,81.54,28,26,6.55,NA,1703958548
399,nelson bay,-32.7167,152.15,66.25,92,99,10.0,AU,1703958549
400,alesund,62.4723,6.1549,36.34,87,75,8.05,NO,1703958339
401,monte carmelo,-18.7247,-47.4986,79.36,65,85,8.41,BR,1703958551
402,dawei,14.0833,98.2,73.24,72,99,3.67,MM,1703958552
403,las khorey,11.1595,48.1967,77.25,70,98,8.41,SO,1703958553
404,saint-philippe,-21.3585,55.7679,78.39,81,100,11.01,RE,1703958553
405,aktau,43.65,51.2,32.58,71,33,7.67,KZ,1703958554
406,okhotsk,59.3833,143.3,-24.56,81,21,14.0,RU,1703958555
407,northam,51.0333,-4.2167,45.61,95,100,14.67,GB,1703958555
408,bamboo flat,11.7,92.7167,80.69,78,20,5.75,IN,1703958556
409,vigan,17.5747,120.3869,75.79,86,43,3.58,PH,1703958556
410,dingwall,57.5953,-4.4272,40.95,84,100,6.67,GB,1703958557
411,katsina-ala,7.1667,9.2833,85.71,20,37,4.76,NG,1703958557
412,oppdal,62.5943,9.6912,19.13,93,98,5.61,NO,1703958558
413,aracati,-4.5617,-37.7697,88.47,54,62,13.4,BR,1703958559
414,huron,41.1501,-82.5499,37.98,83,88,9.93,US,1703958559
415,laramie,41.3114,-105.5911,45.54,44,0,9.22,US,1703958560
416,vorontsovka,50.6132,40.3549,38.26,94,100,10.25,RU,1703958560
417,bua yai,15.5855,102.4259,79.05,53,79,6.96,TH,1703958561
418,pacific grove,36.6177,-121.9166,56.41,92,100,3.44,US,1703958561
419,college,64.8569,-147.8028,7.2,69,75,0.0,US,1703958562
420,kamen'-rybolov,44.7481,132.0403,10.44,93,100,10.42,RU,1703958563
421,ta`u,-14.2336,-169.5144,81.23,78,98,5.32,AS,1703958563
422,ad dilam,23.9915,47.1627,70.21,60,76,8.79,SA,1703958564
423,tazovsky,67.4667,78.7,-6.48,98,100,15.52,RU,1703958564
424,fukuecho,32.6881,128.8419,61.23,78,80,20.2,JP,1703958565
425,patong,7.8961,98.2966,77.14,83,73,8.59,TH,1703958566
426,mahdia,35.5047,11.0622,60.75,73,100,9.17,TN,1703958566
427,mukalla,14.5425,49.1242,75.04,75,67,3.53,YE,1703958567
428,sirte,31.2089,16.5887,62.02,60,2,5.48,LY,1703958567
429,myeik,12.4333,98.6,76.96,78,94,3.11,MM,1703958568
430,chinde,26.8418,88.0763,49.51,69,10,4.52,NP,1703958568
431,guayaramerin,-10.8368,-65.3614,93.25,52,40,5.75,BO,1703958569
432,huarmey,-10.0681,-78.1522,77.0,74,57,10.54,PE,1703958570
433,mutoko,-17.397,32.2268,64.2,84,74,6.8,ZW,1703958571
434,ocumare del tuy,10.1165,-66.7761,88.61,45,70,3.38,VE,1703958571
435,crane,31.3974,-102.3501,56.86,19,2,6.64,US,1703958572
436,carbonear,47.7332,-53.2148,35.42,92,100,15.61,CA,1703958572
437,tumaco,1.7986,-78.8156,76.77,91,100,2.57,CO,1703958573
438,ribeira brava,32.65,-17.0667,70.0,78,69,2.46,PT,1703958574
439,alofi,-19.0595,-169.9187,76.89,94,71,11.5,NU,1703958575
440,swidwin,53.7746,15.7767,39.96,100,66,9.89,PL,1703958576
441,flin flon,54.7682,-101.865,19.24,79,75,2.3,CA,1703958577
442,guerrero negro,27.9769,-114.0611,66.0,66,74,15.88,MX,1703958577
443,yeniseysk,58.4497,92.1703,22.95,86,100,11.99,RU,1703958578
444,tual,-5.6667,132.75,84.24,69,99,3.8,ID,1703958578
445,perico,22.7692,-81.0189,66.87,90,100,5.28,CU,1703958579
446,dunedin,-45.8742,170.5036,54.81,91,98,4.0,NZ,1703958511
447,luganville,-15.5333,167.1667,79.11,88,92,1.74,VU,1703958580
448,kokpekty,48.75,82.4,17.33,92,100,4.23,KZ,1703958581
449,pangody,65.85,74.4859,-7.1,97,100,17.4,RU,1703958581
450,qui nhon,13.7667,109.2333,73.08,89,15,8.68,VN,1703958582
451,megion,61.0296,76.1136,8.62,98,93,6.89,RU,1703958582
452,artvin,41.1667,41.8333,42.13,68,93,4.38,TR,1703958583
453,airdrie,55.866,-3.9803,41.68,95,100,9.31,GB,1703958584
454,villa juarez,24.6536,-107.5411,78.67,13,4,3.18,MX,1703958584
455,micheweni,-4.9667,39.8333,83.62,82,98,11.65,TZ,1703958585
456,ierapetra,35.01,25.7353,63.14,70,97,1.01,GR,1703958585
457,mezhdurechensk,53.6942,88.0603,24.06,84,100,11.9,RU,1703958586
458,antsiranana,-12.2787,49.2917,79.68,81,58,1.68,MG,1703958587
459,berazategui,-34.7633,-58.2117,80.04,34,61,1.74,AR,1703958587
460,la pesa,7.4954,-72.3818,58.21,77,89,4.05,VE,1703958588
461,mandera,3.9366,41.867,93.0,29,21,9.73,KE,1703958589
462,gutierrez zamora,20.45,-97.0833,63.81,83,100,4.85,MX,1703958589
463,isangel,-19.55,169.2667,77.65,87,16,7.45,VU,1703958590
464,qamdo,31.1667,97.2333,10.4,29,1,2.13,CN,1703958591
465,wuwei,37.9281,102.6414,25.97,39,0,7.23,CN,1703958591
466,constitucion,-35.3333,-72.4167,64.56,70,99,10.69,CL,1703958402
467,zakynthos,37.7914,20.8953,55.63,94,75,0.0,GR,1703958593
468,san jeronimo,-11.9472,-75.2829,64.27,52,93,5.48,PE,1703958594
469,zhangye,38.9342,100.4517,25.03,41,5,4.65,CN,1703958594
470,cidreira,-30.1811,-50.2056,74.1,50,21,11.9,BR,1703958595
471,taltal,-25.4,-70.4833,70.72,70,58,9.62,CL,1703958596
472,kotri,25.366,68.3122,66.97,23,0,7.76,PK,1703958596
473,santiago,-33.4569,-70.6483,81.59,50,40,16.11,CL,1703958451
474,madera,37.1666,-119.8343,52.74,94,100,2.37,US,1703958597
475,lichinga,-13.3128,35.2406,71.69,83,75,2.3,MZ,1703958598
476,natal,-5.795,-35.2094,90.25,70,40,12.66,BR,1703958496
477,galliano,29.4422,-90.2992,59.0,38,0,8.05,US,1703958599
478,jining,35.405,116.5814,31.78,84,2,5.91,CN,1703958600
479,kamloops,50.6665,-120.3192,42.57,80,75,12.66,CA,1703958601
480,ujae,8.9322,165.7642,81.93,83,99,16.96,MH,1703958601
481,bodaybo,57.8506,114.1933,3.29,93,100,2.21,RU,1703958602
482,dundalk,39.2507,-76.5205,47.17,62,100,13.8,US,1703958603
483,codrington,-38.2667,141.9667,56.55,63,65,9.51,AU,1703958604
484,pecos,31.4229,-103.4932,60.3,27,0,0.0,US,1703958604
485,papao,-17.75,-149.55,83.88,82,90,12.28,PF,1703958605
486,biltine,14.5333,20.9167,77.05,16,22,5.79,TD,1703958606
487,gelemso,8.8167,40.5167,64.65,52,82,3.89,ET,1703958606
488,leer,53.2316,7.461,46.92,92,100,10.83,DE,1703958607
489,nizhnesortymskiy,62.4397,71.7603,0.09,98,96,4.29,RU,1703958608
490,matonga,-2.3833,34.0833,66.11,88,99,2.89,TZ,1703958609
491,ouesso,1.6136,16.0517,81.7,40,99,2.37,CG,1703958610
492,brackley,52.0333,-1.15,52.36,89,100,7.0,GB,1703958610
493,khandyga,62.6667,135.6,-57.35,100,92,2.08,RU,1703958611
494,socorro,31.6546,-106.3033,54.48,38,75,5.75,US,1703958611
495,gao,16.6362,1.637,76.32,12,0,9.62,ML,1703958612
496,tarija,-21.5355,-64.7296,69.71,73,75,6.91,BO,1703958613
497,nyurba,63.2842,118.3319,-20.47,95,99,4.23,RU,1703958613
498,kuala kangsar,4.7667,100.9333,80.22,99,100,0.56,MY,1703958614
499,acarau,-2.8856,-40.12,88.02,61,59,17.22,BR,1703958355
500,nova vicosa,-17.8919,-39.3719,85.46,65,69,17.56,BR,1703958615
501,malango,-2.9627,119.9001,69.17,97,94,1.74,ID,1703958616
502,ixtapa,20.7,-105.2,77.23,59,0,3.0,MX,1703958617
503,bastrop,32.7562,-91.8724,51.69,56,0,5.75,US,1703958618
504,sao gabriel da cachoeira,-0.1303,-67.0892,91.2,66,20,3.44,BR,1703958619
505,machico,32.7,-16.7667,70.0,81,40,8.05,PT,1703958620
506,brak,27.5496,14.2714,58.01,40,1,5.57,LY,1703958620
507,quartu sant'elena,39.2419,9.1839,60.01,79,0,3.44,IT,1703958621
508,daultala,33.1925,73.1413,53.62,36,86,2.73,PK,1703958622
509,mont-laurier,46.5501,-75.4993,22.62,65,90,7.65,CA,1703958623
510,yeppoon,-23.1333,150.7333,71.38,89,66,10.04,AU,1703958624
511,arno,60.1167,18.6333,29.79,84,100,14.45,SE,1703958624
512,sonoita,31.85,-112.8333,65.55,23,82,8.57,MX,1703958625
513,morehead city,34.7229,-76.726,50.02,61,100,12.66,US,1703958626
514,tamanrasset,22.785,5.5228,66.11,14,0,4.61,DZ,1703958626
515,mount isa,-20.7333,139.5,89.37,22,5,14.97,AU,1703958627
516,tahe,52.3333,124.7333,-16.91,98,5,2.53,CN,1703958628
517,cayeli,41.0923,40.7292,54.75,63,86,3.04,TR,1703958628
518,ambon,-3.6954,128.1814,77.14,88,40,6.91,ID,1703958629
519,oriximina,-1.7656,-55.8661,85.69,66,99,1.95,BR,1703958630
520,warrnambool,-38.3833,142.4833,56.34,65,95,9.01,AU,1703958631
521,raceland,29.7274,-90.599,58.98,53,0,5.75,US,1703958558
522,thunder bay,48.4001,-89.3168,28.38,93,100,5.75,CA,1703958476
523,benguela,-12.5763,13.4055,79.03,73,69,6.4,AO,1703958634
524,maues,-3.3836,-57.7186,74.73,99,100,3.71,BR,1703958635
525,branik,50.036,14.4124,46.13,78,0,12.66,CZ,1703958635
526,solnechnyy,50.7214,136.6319,-18.98,98,26,3.11,RU,1703958636
527,pospelikha,51.95,81.7667,24.98,91,100,28.36,RU,1703958636
528,tigre,-34.426,-58.5796,81.05,29,0,11.5,AR,1703958637
529,la passe,45.5549,-0.8967,50.23,91,49,10.07,FR,1703958638
530,cabugao,17.7931,120.4578,75.02,89,46,2.51,PH,1703958639
531,dhaurahra,28.0,81.0833,58.21,64,95,2.95,IN,1703958639
532,guixi,28.2886,117.2133,54.19,77,0,2.01,CN,1703958640
533,turpan,42.9333,89.1667,28.6,46,73,0.65,CN,1703958640
534,kaya,13.0917,-1.0844,80.29,11,5,8.16,BF,1703958641
535,merizo village,13.2658,144.6691,81.16,92,85,24.74,GU,1703958642
536,bardai,11.65,7.2333,74.75,20,0,9.35,NG,1703958642
537,susuman,62.7833,148.1667,-40.02,99,98,1.01,RU,1703958643
538,boundiali,9.5217,-6.4869,84.72,12,1,2.73,CI,1703958644
539,richfield,44.8833,-93.283,30.31,86,100,14.97,US,1703958644
540,linton,39.0348,-87.1658,38.97,69,62,10.38,US,1703958645
541,vila franca do campo,37.7167,-25.4333,63.01,71,98,2.82,PT,1703958646
542,zangilan,39.0883,46.6512,47.14,46,3,4.45,AZ,1703958646
543,port lincoln,-34.7333,135.8667,58.73,78,71,12.28,AU,1703958647
544,vuktyl,63.8567,57.3094,-6.2,98,100,5.5,RU,1703958647
545,pervomayskoye,43.919,46.7102,43.95,48,70,5.37,RU,1703958649
546,timbuktu,16.7735,-3.0074,77.7,10,4,8.28,ML,1703958649
547,freetown,8.484,-13.2299,85.71,70,5,9.22,SL,1703958649
548,fernie,49.5,-115.0687,30.29,84,60,0.2,CA,1703958650
549,tezu,27.9167,96.1667,60.37,51,0,4.41,IN,1703958651
550,betio village,1.358,172.9211,82.44,75,97,16.46,KI,1703958651
551,lethem,3.3803,-59.7968,93.74,42,73,12.55,GY,1703958652
552,huadian,42.9633,126.7478,17.22,97,100,3.36,CN,1703958653
553,port douglas,-16.4833,145.4667,80.94,85,94,6.78,AU,1703958654
554,tuy hoa,13.0833,109.3,72.43,90,47,5.48,VN,1703958654
555,ciudad melchor muzquiz,27.8833,-101.5167,54.36,19,2,3.47,MX,1703958655
556,andergrove,-21.0833,149.1833,76.64,84,48,15.43,AU,1703958656
557,port-gentil,-0.7193,8.7815,84.16,79,40,9.22,GA,1703958657
558,inarajan village,13.2736,144.7484,81.57,92,85,24.56,GU,1703958657
559,juneau,58.3019,-134.4197,46.4,95,100,17.27,US,1703958270
560,broken hill,-31.95,141.4333,61.38,50,0,13.51,AU,1703958450
561,opuwo,-18.0607,13.84,77.61,35,10,15.66,NA,1703958659
562,njombe,-9.3333,34.7667,60.35,92,98,1.1,TZ,1703958659
563,hailar,49.2,119.7,-16.58,100,80,1.57,CN,1703958660
564,forster,-32.1667,152.5167,71.29,77,100,11.43,AU,1703958661
565,kvissleby,62.2936,17.375,22.84,94,100,9.13,SE,1703958661
566,hammerfest,70.6634,23.6821,18.05,67,10,5.75,NO,1703958662
567,sierre,46.2919,7.5356,44.24,79,0,1.14,CH,1703958662
568,sisophon,13.5859,102.9737,78.01,63,53,3.24,KH,1703958663
569,shakawe,-18.3667,21.85,80.64,44,69,4.97,BW,1703958664
570,bridgewater,44.3835,-64.5155,37.02,96,100,3.44,CA,1703958372
571,ternate,0.8,127.4,80.8,82,14,5.5,ID,1703958666
572,naliya,23.2667,68.8333,70.3,27,0,8.57,IN,1703958667
